TIMESTAMP,LNG,LAT,DEVICE_NAME,TEMPERATURE,HUMIDITY,PRESSURE,PITCH,ROLL,YAW,X,Y,Z
20190805 12:00 , -118.323411 , 33.893916 , AstroPiOTA , 42.15666580200195 , 35.453269958496094 , 1017.511962890625 , 354.4792131622789 , 97.27375098938072 , 216.78951121937504 , 0.09770569950342178 , 1.0032190084457397 , -0.12798617780208588
20190805 12:30 , -118.323411 , 33.893916 , AstroPiOTA , 42.35832977294922 , 33.814449310302734 , 1017.25927734375 , 354.4124706881436 , 97.27200929114237 , 218.75015800176223 , 0.09940282255411148 , 1.0029761791229248 , -0.12991440296173096
20190805 13:00 , -118.323411 , 33.893916 , AstroPiOTA , 42.50499725341797 , 35.038597106933594 , 1017.122314453125 , 354.4477682520006 , 97.38506941247358 , 217.65906260260937 , 0.09867548942565918 , 1.00224769115448 , -0.12967339158058167
20190805 13:30 , -118.323411 , 33.893916 , AstroPiOTA , 42.394996643066406 , 34.13823699951172 , 1017.048095703125 , 354.58495857789586 , 97.65031980889103 , 214.61995627103386 , 0.09479635208845139 , 1.0032190084457397 , -0.1354580670595169
20190805 14:00 , -118.323411 , 33.893916 , AstroPiOTA , 42.17499923706055 , 34.67788314819336 , 1016.66357421875 , 354.70412488834506 , 97.53919946128408 , 214.3422954208945 , 0.09406901150941849 , 1.0034617185592651 , -0.1323246955871582
20190805 14:30 , -118.323411 , 33.893916 , AstroPiOTA , 42.08333206176758 , 35.4617919921875 , 1016.705322265625 , 354.69475301503013 , 97.60784969263189 , 215.1320838550014 , 0.09358412027359009 , 1.002490520477295 , -0.1325657218694687
20190805 15:00 , -118.323411 , 33.893916 , AstroPiOTA , 41.71666717529297 , 35.001670837402344 , 1016.5009765625 , 354.71922046018443 , 97.6608929417262 , 214.10504196988492 , 0.09382656961679459 , 1.0029761791229248 , -0.13304777443408966
20190805 15:30 , -118.323411 , 33.893916 , AstroPiOTA , 41.698333740234375 , 35.36238479614258 , 1016.332275390625 , 354.68556769125695 , 97.65652845084657 , 215.13237072294655 , 0.09334167838096619 , 1.002004861831665 , -0.13328881561756134
20190805 16:00 , -118.323411 , 33.893916 , AstroPiOTA , 41.44166564941406 , 35.575401306152344 , 1015.77783203125 , 354.6475060352202 , 97.56986701065745 , 214.6990498616226 , 0.09309922903776169 , 1.002490520477295 , -0.13328881561756134
20190805 16:30 , -118.323411 , 33.893916 , AstroPiOTA , 41.111663818359375 , 35.260135650634766 , 1015.548583984375 , 354.7055438601451 , 97.5843879928329 , 215.2862412245686 , 0.09358412027359009 , 1.0032190084457397 , -0.13328881561756134
20190805 17:00 , -118.323411 , 33.893916 , AstroPiOTA , 40.85499954223633 , 35.25445556640625 , 1015.390869140625 , 354.72034744139745 , 97.6792524902152 , 214.64696283901208 , 0.09285678714513779 , 1.0029761791229248 , -0.13136059045791626
20190805 17:30 , -118.323411 , 33.893916 , AstroPiOTA , 40.48833465576172 , 36.163333892822266 , 1015.227783203125 , 354.75703366809006 , 97.64409750655715 , 215.3452813797542 , 0.09285678714513779 , 1.002004861831665 , -0.13425292074680328
20190805 18:00 , -118.323411 , 33.893916 , AstroPiOTA , 39.938331604003906 , 36.42747497558594 , 1015.172119140625 , 354.75656622701877 , 97.58339761540324 , 215.12605962815346 , 0.09115966409444809 , 1.0017621517181396 , -0.1354580670595169
20190805 18:30 , -118.323411 , 33.893916 , AstroPiOTA , 39.33333206176758 , 36.46439743041992 , 1014.76318359375 , 354.79330239946967 , 97.6583657717333 , 215.58059505703946 , 0.09285678714513779 , 1.0010337829589844 , -0.1337708681821823
20190805 19:00 , -118.323411 , 33.893916 , AstroPiOTA , 39.938331604003906 , 34.95338821411133 , 1014.949951171875 , 354.82398488988184 , 97.53557946102399 , 215.33761790750543 , 0.09140210598707199 , 1.0029761791229248 , -0.1323246955871582
20190805 19:30 , -118.323411 , 33.893916 , AstroPiOTA , 39.49833297729492 , 35.547000885009766 , 1015.0126953125 , 354.78993340866157 , 97.69095943445261 , 216.03280822160767 , 0.09164455533027649 , 1.0027333498001099 , -0.13280674815177917
20190805 20:00 , -118.323411 , 33.893916 , AstroPiOTA , 38.746665954589844 , 35.37090301513672 , 1015.1875 , 354.78573326920883 , 97.65582494136206 , 214.9587336538665 , 0.09140210598707199 , 1.0010337829589844 , -0.1340118944644928
20190805 20:30 , -118.323411 , 33.893916 , AstroPiOTA , 37.84833526611328 , 34.981788635253906 , 1015.2333984375 , 354.9187708400887 , 97.67490165971391 , 215.96498444314946 , 0.08897764980792999 , 1.00224769115448 , -0.13521704077720642
20190805 21:00 , -118.323411 , 33.893916 , AstroPiOTA , 37.05999755859375 , 34.80001449584961 , 1015.541748046875 , 354.94147737709756 , 97.71619698343581 , 215.1461403843133 , 0.08946254104375839 , 1.0007909536361694 , -0.13521704077720642
20190805 21:30 , -118.323411 , 33.893916 , AstroPiOTA , 36.5099983215332 , 34.25184631347656 , 1015.78857421875 , 354.95744593249026 , 97.58173787943493 , 215.39795579863332 , 0.08970499038696289 , 1.0010337829589844 , -0.13449394702911377
20190805 22:00 , -118.323411 , 33.893916 , AstroPiOTA , 36.01499938964844 , 33.86841583251953 , 1016.196533203125 , 355.0433936179111 , 97.71374494552377 , 215.03144784777044 , 0.0875229761004448 , 0.9993342161178589 , -0.13425292074680328
20190805 22:30 , -118.323411 , 33.893916 , AstroPiOTA , 35.31833267211914 , 34.40806198120117 , 1016.3388671875 , 355.09866863131674 , 97.56089897227722 , 214.26040145274604 , 0.0863107442855835 , 1.000305414199829 , -0.13136059045791626
20190805 23:00 , -118.323411 , 33.893916 , AstroPiOTA , 34.89666748046875 , 34.34841537475586 , 1016.563232421875 , 355.1422682901098 , 97.5843879928329 , 215.16235525340292 , 0.08679564297199249 , 1.000305414199829 , -0.13449394702911377
20190805 23:30 , -118.323411 , 33.893916 , AstroPiOTA , 34.438331604003906 , 34.586997985839844 , 1016.647216796875 , 355.09594808159295 , 97.6342005624498 , 215.57634667937572 , 0.0863107442855835 , 0.999576985836029 , -0.13425292074680328
20190806 00:00 , -118.323411 , 33.893916 , AstroPiOTA , 34.21833038330078 , 34.970428466796875 , 1016.77734375 , 355.14526588938185 , 97.7810427994159 , 215.57372388673443 , 0.0843711793422699 , 0.999819815158844 , -0.1356990933418274
20190806 00:30 , -118.323411 , 33.893916 , AstroPiOTA , 33.88833236694336 , 34.49042892456055 , 1016.65185546875 , 355.19386908862884 , 97.52020470520229 , 215.5663746031875 , 0.0853409618139267 , 1.000305414199829 , -0.1337708681821823
20190806 01:00 , -118.323411 , 33.893916 , AstroPiOTA , 33.7599983215332 , 34.03030776977539 , 1016.5673828125 , 355.1764521062453 , 97.70572630343817 , 215.06957396371746 , 0.0853409618139267 , 1.000305414199829 , -0.13594011962413788
20190806 01:30 , -118.323411 , 33.893916 , AstroPiOTA , 33.375 , 34.1865234375 , 1016.341064453125 , 355.228446921302 , 97.5500389714969 , 215.04870090561388 , 0.0841287299990654 , 1.000548243522644 , -0.13473497331142426
20190806 02:00 , -118.323411 , 33.893916 , AstroPiOTA , 33.02666473388672 , 34.00190734863281 , 1016.233642578125 , 355.1956816500798 , 97.68293396217784 , 215.2132401627195 , 0.083643838763237 , 0.9990915060043335 , -0.1337708681821823
20190806 02:30 , -118.323411 , 33.893916 , AstroPiOTA , 32.84333038330078 , 33.62699508666992 , 1015.978271484375 , 355.27520340815215 , 97.56271580259644 , 216.4750356496093 , 0.0826740637421608 , 0.9993342161178589 , -0.13184264302253723
20190806 03:00 , -118.323411 , 33.893916 , AstroPiOTA , 32.62333297729492 , 34.192203521728516 , 1015.572998046875 , 355.2194536965992 , 97.67490165971391 , 215.11734430677254 , 0.0834013968706131 , 0.9993342161178589 , -0.13208366930484772
20190806 03:30 , -118.323411 , 33.893916 , AstroPiOTA , 32.25666809082031 , 32.76923751831055 , 1015.441650390625 , 355.29420371376267 , 97.63161875094353 , 216.34446975343536 , 0.083643838763237 , 0.999576985836029 , -0.1323246955871582
20190806 04:00 , -118.323411 , 33.893916 , AstroPiOTA , 32.14666748046875 , 33.14131164550781 , 1015.265869140625 , 355.3233071498161 , 97.68411558490425 , 215.61496456894298 , 0.0826740637421608 , 0.9990915060043335 , -0.1337708681821823
20190806 04:30 , -118.323411 , 33.893916 , AstroPiOTA , 31.981666564941406 , 32.25799560546875 , 1015.398681640625 , 355.2307115558987 , 97.66501154579572 , 214.98227048574634 , 0.0829165056347847 , 0.9993342161178589 , -0.13280674815177917
20190806 05:00 , -118.323411 , 33.893916 , AstroPiOTA , 31.76166534423828 , 33.3685302734375 , 1015.490966796875 , 355.35797975136404 , 97.63053958105468 , 215.6729665353747 , 0.0834013968706131 , 0.9981202483177185 , -0.13304777443408966
20190806 05:30 , -118.323411 , 33.893916 , AstroPiOTA , 31.486665725708008 , 32.780601501464844 , 1015.733154296875 , 355.3374473489453 , 97.72486449349255 , 216.17051849565348 , 0.0817042738199234 , 0.999576985836029 , -0.13352984189987183
20190806 06:00 , -118.323411 , 33.893916 , AstroPiOTA , 31.523332595825195 , 32.75503921508789 , 1016.062255859375 , 355.31326805239667 , 97.49847104326331 , 215.52522954362735 , 0.0834013968706131 , 0.9986058473587036 , -0.1325657218694687
20190806 06:30 , -118.323411 , 33.893916 , AstroPiOTA , 31.266666412353516 , 32.52497863769531 , 1016.5263671875 , 355.30693433260194 , 97.64704131808942 , 216.34405994208515 , 0.0826740637421608 , 0.9983630776405334 , -0.1354580670595169
20190806 07:00 , -118.323411 , 33.893916 , AstroPiOTA , 31.303333282470703 , 37.239784240722656 , 1016.843994140625 , 355.32516666881764 , 97.5428194615442 , 215.5545993570584 , 0.0824316069483757 , 0.9986058473587036 , -0.1323246955871582
20190806 07:30 , -118.323411 , 33.893916 , AstroPiOTA , 31.19333267211914 , 44.43981170654297 , 1017.1484375 , 355.3254595131783 , 97.56997629368416 , 215.95234859318492 , 0.0821891650557518 , 0.9981202483177185 , -0.13328881561756134
20190806 08:00 , -118.323411 , 33.893916 , AstroPiOTA , 31.79833221435547 , 46.84265899658203 , 1017.615478515625 , 355.3254595131783 , 97.56997629368416 , 215.47135301145428 , 0.0843711793422699 , 0.9990915060043335 , -0.1354580670595169
20190806 08:30 , -118.323411 , 33.893916 , AstroPiOTA , 32.36666488647461 , 46.65235900878906 , 1017.829833984375 , 355.25131097954863 , 97.66753871578864 , 216.50940516151283 , 0.0841287299990654 , 0.999819815158844 , -0.13473497331142426
20190806 09:00 , -118.323411 , 33.893916 , AstroPiOTA , 33.48500061035156 , 45.90821838378906 , 1017.8701171875 , 355.19848416207367 , 97.64520399720269 , 215.5225521094727 , 0.0850985199213028 , 1.0007909536361694 , -0.13352984189987183
20190806 09:30 , -118.323411 , 33.893916 , AstroPiOTA , 34.27333068847656 , 45.25495910644531 , 1017.41455078125 , 355.1765272383262 , 97.60888788138573 , 215.760638843561 , 0.086068294942379 , 1.0010337829589844 , -0.13473497331142426
20190806 10:00 , -118.323411 , 33.893916 , AstroPiOTA , 35.73999786376953 , 43.03388977050781 , 1017.199951171875 , 355.07811146946227 , 97.63311456237177 , 215.6979377069803 , 0.0877654179930687 , 1.0007909536361694 , -0.13352984189987183
20190806 10:30 , -118.323411 , 33.893916 , AstroPiOTA , 37.481666564941406 , 41.26725387573242 , 1016.97412109375 , 354.9533640406875 , 97.56720323688114 , 215.9434283661289 , 0.0901898741722107 , 1.0007909536361694 , -0.1340118944644928
20190806 11:00 , -118.323411 , 33.893916 , AstroPiOTA , 38.83833312988281 , 40.170921325683594 , 1016.677978515625 , 354.81826844843334 , 97.67557784844173 , 214.63144464921783 , 0.09164455533027649 , 1.0007909536361694 , -0.13521704077720642
20190806 11:30 , -118.323411 , 33.893916 , AstroPiOTA , 40.15833282470703 , 38.9893798828125 , 1016.41455078125 , 354.58903492016987 , 97.5120494593333 , 215.22919548462065 , 0.09309922903776169 , 1.0012766122817993 , -0.13184264302253723
20190806 12:00 , -118.323411 , 33.893916 , AstroPiOTA , 42.22999954223633 , 36.336585998535156 , 1016.2021484375 , 354.4796302307051 , 97.52114044111858 , 214.69196012526413 , 0.09722080826759338 , 1.00224769115448 , -0.13328881561756134
20190806 12:30 , -118.323411 , 33.893916 , AstroPiOTA , 42.76166534423828 , 35.56687927246094 , 1016.043212890625 , 354.4772657045918 , 97.64848931819347 , 214.99407305263213 , 0.09867548942565918 , 1.000548243522644 , -0.1340118944644928
20190806 13:00 , -118.323411 , 33.893916 , AstroPiOTA , 43.18333435058594 , 35.299896240234375 , 1015.880859375 , 354.40176095152503 , 97.5022071567393 , 214.0107033970687 , 0.10085750371217728 , 1.0032190084457397 , -0.13208366930484772
20190806 13:30 , -118.323411 , 33.893916 , AstroPiOTA , 40.744998931884766 , 37.875999450683594 , 1015.935302734375 , 354.52132768181434 , 97.58884810636091 , 215.52062599612677 , 0.09576613456010818 , 1.0015194416046143 , -0.13280674815177917
20190806 14:00 , -118.323411 , 33.893916 , AstroPiOTA , 40.04833221435547 , 40.19647979736328 , 1015.596435546875 , 354.6273753333021 , 97.56539323675109 , 214.57207664495206 , 0.09455391019582748 , 1.0010337829589844 , -0.1308785229921341
20190806 14:30 , -118.323411 , 33.893916 , AstroPiOTA , 41.68000030517578 , 37.53233337402344 , 1015.29052734375 , 354.2699754396974 , 97.62504810896198 , 215.15571630952965 , 0.10134238749742508 , 1.0015194416046143 , -0.13352984189987183
20190806 15:00 , -118.323411 , 33.893916 , AstroPiOTA , 42.339996337890625 , 34.851139068603516 , 1015.16162109375 , 354.19746487080806 , 97.47513911705855 , 215.25602446768048 , 0.10231217741966248 , 1.002490520477295 , -0.13111954927444458
20190806 15:30 , -118.323411 , 33.893916 , AstroPiOTA , 42.22999954223633 , 35.24309539794922 , 1014.817626953125 , 354.1512338816372 , 97.59248176699936 , 215.63052373987227 , 0.10328195989131927 , 1.00224769115448 , -0.13280674815177917
20190806 16:00 , -118.323411 , 33.893916 , AstroPiOTA , 41.80833435058594 , 33.683799743652344 , 1014.781005859375 , 354.2542779574374 , 97.57264689764965 , 214.74371929879447 , 0.10158483684062958 , 1.002004861831665 , -0.13208366930484772
20190806 16:30 , -118.323411 , 33.893916 , AstroPiOTA , 42.04666519165039 , 35.05563735961914 , 1014.703857421875 , 354.18192192157807 , 97.64299784610077 , 215.02495916805893 , 0.10134238749742508 , 1.0015194416046143 , -0.13473497331142426
20190806 17:00 , -118.323411 , 33.893916 , AstroPiOTA , 41.404998779296875 , 35.288536071777344 , 1014.33984375 , 354.28822143629145 , 97.45341911549791 , 215.07436875651482 , 0.10158483684062958 , 1.002004861831665 , -0.13208366930484772
20190806 17:07 , -118.323411 , 33.893916 , AstroPiOTA , 41.23999786376953 , 36.09800720214844 , 1014.266845703125 , 354.2821634853845 , 97.51659836532052 , 215.37175519297716 , 0.10303951054811478 , 1.000548243522644 , -0.1323246955871582
20190806 17:22 , -118.323411 , 33.893916 , AstroPiOTA , 41.111663818359375 , 35.785579681396484 , 1014.37939453125 , 354.26025351918753 , 97.6060260321235 , 214.71251899466586 , 0.10182727873325348 , 1.00224769115448 , -0.13449394702911377
20190806 17:23 , -118.323411 , 33.893916 , AstroPiOTA , 41.056663513183594 , 35.29705810546875 , 1014.354248046875 , 354.24539188132724 , 97.51119568568704 , 214.75987952637072 , 0.10109994560480118 , 1.0007909536361694 , -0.1337708681821823
20190806 17:24 , -118.323411 , 33.893916 , AstroPiOTA , 41.258331298828125 , 36.00143814086914 , 1014.394775390625 , 354.27097179354257 , 97.59612225782698 , 214.7507543936396 , 0.10182727873325348 , 1.000548243522644 , -0.1325657218694687
20190806 17:25 , -118.323411 , 33.893916 , AstroPiOTA , 41.258331298828125 , 35.921913146972656 , 1014.4111328125 , 354.2784606690807 , 97.64116735540321 , 214.65888834930294 , 0.10134238749742508 , 1.002004861831665 , -0.13521704077720642
20190806 17:26 , -118.323411 , 33.893916 , AstroPiOTA , 41.23999786376953 , 36.086647033691406 , 1014.39990234375 , 354.25254863891695 , 97.52927519642006 , 215.34417488910864 , 0.10134238749742508 , 1.0017621517181396 , -0.13280674815177917
20190806 17:27 , -118.323411 , 33.893916 , AstroPiOTA , 41.27666473388672 , 35.740135192871094 , 1014.42431640625 , 354.2441052444423 , 97.62322444845358 , 214.85733266544847 , 0.10279706865549088 , 1.002490520477295 , -0.13473497331142426
20190806 17:27 , -118.323411 , 33.893916 , AstroPiOTA , 41.27666473388672 , 35.77989959716797 , 1014.4267578125 , 354.30448923934716 , 97.65652845084657 , 214.9870652785437 , 0.10085750371217728 , 1.0012766122817993 , -0.13352984189987183
20190806 17:28 , -118.323411 , 33.893916 , AstroPiOTA , 41.313331604003906 , 35.8963508605957 , 1014.434814453125 , 354.2452860133951 , 97.60784969263189 , 214.85475085394222 , 0.10279706865549088 , 1.0010337829589844 , -0.1325657218694687
20190806 17:30 , -118.323411 , 33.893916 , AstroPiOTA , 41.111663818359375 , 35.1749267578125 , 1014.447998046875 , 354.299657734283 , 97.49764459037374 , 214.84738791001695 , 0.10134238749742508 , 1.0017621517181396 , -0.13160160183906555
20190806 17:57 , -118.323411 , 33.893916 , AstroPiOTA , 40.5433349609375 , 35.85658645629883 , 1014.561279296875 , 354.3682528972306 , 97.53829787631365 , 214.9004858006246 , 0.10134238749742508 , 1.0027333498001099 , -0.1325657218694687
20190806 17:59 , -118.323411 , 33.893916 , AstroPiOTA , 40.50666809082031 , 35.02155303955078 , 1014.513916015625 , 354.32462677145446 , 97.63859920427528 , 215.54977724350437 , 0.10013016313314438 , 1.0017621517181396 , -0.13497601449489594
20190806 18:00 , -118.323411 , 33.893916 , AstroPiOTA , 40.525001525878906 , 33.621315002441406 , 1014.526611328125 , 354.4806274383239 , 97.62474075044933 , 214.78558835840667 , 0.10182727873325348 , 1.0029761791229248 , -0.13690423965454102
20190806 18:22 , -118.323411 , 33.893916 , AstroPiOTA , 40.268333435058594 , 35.10108184814453 , 1014.479248046875 , 354.31978758242747 , 97.68662226432964 , 215.34983028574143 , 0.10231217741966248 , 1.0007909536361694 , -0.1340118944644928
20190806 18:23 , -118.323411 , 33.893916 , AstroPiOTA , 40.30500030517578 , 35.422027587890625 , 1014.48828125 , 354.29308196965957 , 97.52020470520229 , 214.93206859534675 , 0.09988772124052048 , 1.002004861831665 , -0.1323246955871582
20190806 18:26 , -118.323411 , 33.893916 , AstroPiOTA , 40.10333251953125 , 35.67197036743164 , 1014.46630859375 , 354.30098919428434 , 97.70265954850083 , 214.67708397325185 , 0.10013016313314438 , 1.0007909536361694 , -0.1340118944644928
20190806 18:27 , -118.323411 , 33.893916 , AstroPiOTA , 40.231666564941406 , 35.97303771972656 , 1014.4599609375 , 354.3311799110763 , 97.62062897656898 , 214.82258066295145 , 0.10085750371217728 , 1.0012766122817993 , -0.13039645552635193
20190806 18:30 , -118.323411 , 33.893916 , AstroPiOTA , 40.176666259765625 , 35.3226203918457 , 1014.47314453125 , 354.34137695662025 , 97.56539323675109 , 215.15077125257056 , 0.10013016313314438 , 1.0007909536361694 , -0.13328881561756134
20190806 18:31 , -118.323411 , 33.893916 , AstroPiOTA , 40.231666564941406 , 35.18628692626953 , 1014.49462890625 , 354.3541844150877 , 97.60784969263189 , 214.78885318882993 , 0.10134238749742508 , 1.0000625848770142 , -0.13425292074680328
20190806 18:31 , -118.323411 , 33.893916 , AstroPiOTA , 40.28666687011719 , 35.390785217285156 , 1014.51220703125 , 354.2966733685025 , 97.5843879928329 , 215.60209649254668 , 0.10085750371217728 , 1.0015194416046143 , -0.1325657218694687
20190806 19:00 , -118.323411 , 33.893916 , AstroPiOTA , 38.801666259765625 , 37.45280456542969 , 1014.96533203125 , 354.44766878737084 , 97.56902006720037 , 215.46912636978487 , 0.09988772124052048 , 1.0015194416046143 , -0.13425292074680328
20190806 19:30 , -118.323411 , 33.893916 , AstroPiOTA , 37.83000183105469 , 38.61162567138672 , 1015.027099609375 , 354.5130251599914 , 97.55908897214717 , 216.64005301995684 , 0.09722080826759338 , 1.0000625848770142 , -0.1325657218694687
20190806 20:00 , -118.323411 , 33.893916 , AstroPiOTA , 37.59166717529297 , 38.327598571777344 , 1015.41650390625 , 354.505903834008 , 97.62428995796411 , 215.10974913641547 , 0.09673592448234558 , 1.0007909536361694 , -0.13352984189987183
20190806 20:22 , -118.323411 , 33.893916 , AstroPiOTA , 37.26166534423828 , 37.603336334228516 , 1015.652099609375 , 354.5094657776602 , 97.59166897448813 , 216.11425139727092 , 0.09649347513914108 , 1.0007909536361694 , -0.13425292074680328
20190806 20:22 , -118.323411 , 33.893916 , AstroPiOTA , 37.31666564941406 , 37.75102996826172 , 1015.640380859375 , 354.52249948614383 , 97.64776531814144 , 215.3569200220999 , 0.09576613456010818 , 1.0007909536361694 , -0.1325657218694687
20190806 20:30 , -118.323411 , 33.893916 , AstroPiOTA , 36.8033332824707 , 37.97256851196289 , 1015.808349609375 , 354.5176090706981 , 97.60784969263189 , 214.838631607501 , 0.09552369266748428 , 1.0007909536361694 , -0.1325657218694687
20190806 21:00 , -118.323411 , 33.893916 , AstroPiOTA , 36.30833435058594 , 37.38747787475586 , 1016.0498046875 , 354.5909926231407 , 97.5645258027265 , 215.07509275656682 , 0.09552369266748428 , 1.002004861831665 , -0.13304777443408966
20190806 21:30 , -118.323411 , 33.893916 , AstroPiOTA , 36.125 , 36.947242736816406 , 1016.656494140625 , 354.5991803124083 , 97.54462946167425 , 215.5320733931757 , 0.09528124332427979 , 0.9993342161178589 , -0.1340118944644928
20190806 22:00 , -118.323411 , 33.893916 , AstroPiOTA , 35.50166702270508 , 35.48735427856445 , 1017.10595703125 , 354.57768570709027 , 97.59166897448813 , 215.325829000998 , 0.09431146085262299 , 0.9986058473587036 , -0.13352984189987183
20190806 22:30 , -118.323411 , 33.893916 , AstroPiOTA , 35.098331451416016 , 35.35102081298828 , 1017.258544921875 , 354.6446510161472 , 97.59348580480736 , 216.20860363046546 , 0.09479635208845139 , 0.999819815158844 , -0.1337708681821823
20190806 23:00 , -118.323411 , 33.893916 , AstroPiOTA , 34.80500030517578 , 35.001670837402344 , 1017.4462890625 , 354.6657972818175 , 97.61619618379764 , 215.33367005816518 , 0.09455391019582748 , 1.0010337829589844 , -0.13352984189987183
20190806 23:30 , -118.323411 , 33.893916 , AstroPiOTA , 34.529998779296875 , 34.64948272705078 , 1017.34375 , 354.6801393984141 , 97.67053716883427 , 215.4199216870041 , 0.09406901150941849 , 0.999576985836029 , -0.1337708681821823
20190807 00:00 , -118.323411 , 33.893916 , AstroPiOTA , 34.14500045776367 , 34.29161071777344 , 1017.43212890625 , 354.66816223481766 , 97.5989636165217 , 214.87622496869272 , 0.09382656961679459 , 0.9988486766815186 , -0.13352984189987183
20190807 00:30 , -118.323411 , 33.893916 , AstroPiOTA , 33.99833297729492 , 33.96214294433594 , 1017.413330078125 , 354.7589345951135 , 97.50928323271944 , 215.8085867715345 , 0.09285678714513779 , 1.0000625848770142 , -0.1337708681821823
20190807 01:00 , -118.323411 , 33.893916 , AstroPiOTA , 33.57666778564453 , 33.561668395996094 , 1017.29541015625 , 354.7206432739659 , 97.62978826024597 , 215.9663641413618 , 0.09164455533027649 , 0.9993342161178589 , -0.13328881561756134
20190807 01:30 , -118.323411 , 33.893916 , AstroPiOTA , 33.448333740234375 , 34.14107894897461 , 1017.1484375 , 354.78614777631407 , 97.58620482315212 , 215.87003115330793 , 0.09334167838096619 , 0.999576985836029 , -0.13304777443408966
20190807 02:00 , -118.323411 , 33.893916 , AstroPiOTA , 33.154998779296875 , 33.77752685546875 , 1016.79296875 , 354.7317410507067 , 97.52288213935694 , 215.519109694131 , 0.09212945401668549 , 0.9988486766815186 , -0.1323246955871582
20190807 02:30 , -118.323411 , 33.893916 , AstroPiOTA , 33.063331604003906 , 33.979183197021484 , 1016.677978515625 , 354.7914787389613 , 97.62612044866168 , 215.81728843253708 , 0.0901898741722107 , 0.9990915060043335 , -0.1340118944644928
20190807 03:00 , -118.323411 , 33.893916 , AstroPiOTA , 33.13666534423828 , 33.39977264404297 , 1016.494873046875 , 354.70680573759427 , 97.61619618379764 , 215.99965448337645 , 0.09309922903776169 , 0.9978774189949036 , -0.13473497331142426
20190807 03:30 , -118.323411 , 33.893916 , AstroPiOTA , 33.099998474121094 , 34.01042556762695 , 1016.46435546875 , 354.74640632062835 , 97.60444142823606 , 215.71744472724984 , 0.09261434525251389 , 0.9990915060043335 , -0.1337708681821823
20190807 04:00 , -118.323411 , 33.893916 , AstroPiOTA , 33.19166564941406 , 33.62983322143555 , 1016.279541015625 , 354.72314995339127 , 97.62612044866168 , 215.68864864970908 , 0.09237189590930939 , 0.9983630776405334 , -0.13352984189987183
20190807 04:30 , -118.323411 , 33.893916 , AstroPiOTA , 33.13666534423828 , 33.198116302490234 , 1016.397705078125 , 354.78094957546887 , 97.67674581078981 , 215.67444185623543 , 0.09309922903776169 , 0.9978774189949036 , -0.1354580670595169
20190807 05:00 , -118.323411 , 33.893916 , AstroPiOTA , 33.19166564941406 , 34.89090347290039 , 1016.39013671875 , 354.7501484105199 , 97.5989636165217 , 215.7323482000188 , 0.09140210598707199 , 0.9990915060043335 , -0.13521704077720642
20190807 05:30 , -118.323411 , 33.893916 , AstroPiOTA , 33.17333221435547 , 33.2208366394043 , 1016.673095703125 , 354.80070205566176 , 97.67422547098607 , 215.7948990724378 , 0.09261434525251389 , 0.9976347088813782 , -0.13352984189987183
20190807 06:00 , -118.323411 , 33.893916 , AstroPiOTA , 33.301666259765625 , 33.2293586730957 , 1016.924072265625 , 354.74898514392686 , 97.71127924723339 , 215.8305389995269 , 0.09261434525251389 , 0.9988486766815186 , -0.1356990933418274
20190807 06:30 , -118.323411 , 33.893916 , AstroPiOTA , 33.448333740234375 , 33.95646286010742 , 1016.95703125 , 354.78727304997983 , 97.59084935178772 , 216.4609381391624 , 0.09285678714513779 , 1.0007909536361694 , -0.13208366930484772
20190807 07:00 , -118.323411 , 33.893916 , AstroPiOTA , 33.22833251953125 , 41.80121994018555 , 1017.054931640625 , 354.7666292301003 , 97.62245946726655 , 214.9121244429703 , 0.09382656961679459 , 0.9978774189949036 , -0.1337708681821823
20190807 07:30 , -118.323411 , 33.893916 , AstroPiOTA , 33.356666564941406 , 43.022525787353516 , 1017.493408203125 , 354.7700242610046 , 97.58984531397974 , 216.2129476307776 , 0.09261434525251389 , 0.9988486766815186 , -0.1337708681821823
20190807 08:00 , -118.323411 , 33.893916 , AstroPiOTA , 33.48500061035156 , 45.31744384765625 , 1017.432861328125 , 354.7796334833932 , 97.56815946336495 , 215.31820650988425 , 0.09188699722290039 , 0.999576985836029 , -0.1325657218694687
20190807 08:30 , -118.323411 , 33.893916 , AstroPiOTA , 34.584999084472656 , 44.65850830078125 , 1017.6787109375 , 354.6868060899308 , 97.48129994768989 , 215.63184879657123 , 0.09382656961679459 , 0.999576985836029 , -0.13328881561756134
20190807 09:00 , -118.323411 , 33.893916 , AstroPiOTA , 35.025001525878906 , 44.38300323486328 , 1017.838134765625 , 354.6115049618787 , 97.4359270010335 , 215.283003714902 , 0.09358412027359009 , 0.9986058473587036 , -0.13425292074680328
20190807 09:30 , -118.323411 , 33.893916 , AstroPiOTA , 34.69499969482422 , 44.70395278930664 , 1017.865478515625 , 354.68249581367775 , 97.65327728080165 , 216.14926294695638 , 0.09479635208845139 , 0.9990915060043335 , -0.1340118944644928
20190807 10:00 , -118.323411 , 33.893916 , AstroPiOTA , 35.62999725341797 , 43.885963439941406 , 1017.940185546875 , 354.6642980552947 , 97.55727214182795 , 214.74639673294914 , 0.09431146085262299 , 1.000305414199829 , -0.13328881561756134
20190807 10:30 , -118.323411 , 33.893916 , AstroPiOTA , 36.06999969482422 , 43.102054595947266 , 1018.113525390625 , 354.6167501202745 , 97.64960263902817 , 215.855209642809 , 0.09600858390331268 , 1.002004861831665 , -0.13304777443408966
20190807 11:00 , -118.323411 , 33.893916 , AstroPiOTA , 37.35333251953125 , 40.89518356323242 , 1018.173583984375 , 354.5351139917672 , 97.56634263304572 , 215.8491990763394 , 0.09746325761079788 , 0.999819815158844 , -0.1340118944644928
20190807 11:30 , -118.323411 , 33.893916 , AstroPiOTA , 38.39833068847656 , 40.53163146972656 , 1018.203125 , 354.3216842405826 , 97.5184015352614 , 215.4846718803358 , 0.09964527189731598 , 1.000305414199829 , -0.13304777443408966
20190807 12:00 , -118.323411 , 33.893916 , AstroPiOTA , 39.974998474121094 , 37.5010871887207 , 1018.0341796875 , 354.31748153980897 , 97.50579983624273 , 216.0544189401416 , 0.10037261247634888 , 1.0015194416046143 , -0.13304777443408966
20190807 12:30 , -118.323411 , 33.893916 , AstroPiOTA , 41.18499755859375 , 36.566646575927734 , 1017.825927734375 , 354.13189676232327 , 97.58620482315212 , 215.7491368049987 , 0.10255462676286697 , 1.00224769115448 , -0.1323246955871582
20190807 13:00 , -118.323411 , 33.893916 , AstroPiOTA , 42.688331604003906 , 36.205936431884766 , 1017.72216796875 , 354.041323331287 , 97.51119568568704 , 215.3398582095532 , 0.10449419170618057 , 1.0012766122817993 , -0.13184264302253723
20190807 13:30 , -118.323411 , 33.893916 , AstroPiOTA , 43.3849983215332 , 34.78013229370117 , 1017.606201171875 , 353.94794866891743 , 97.5364878761836 , 214.81982126652676 , 0.10667620599269867 , 1.002004861831665 , -0.1323246955871582
20190807 14:00 , -118.323411 , 33.893916 , AstroPiOTA , 43.788330078125 , 33.970664978027344 , 1017.28515625 , 353.9614788467764 , 97.42632375506047 , 214.6579184624408 , 0.10619131475687027 , 1.000305414199829 , -0.13304777443408966
20190807 14:30 , -118.323411 , 33.893916 , AstroPiOTA , 44.063331604003906 , 33.652557373046875 , 1016.900634765625 , 353.93703658794465 , 97.51934410136687 , 215.81476126254418 , 0.10619131475687027 , 1.00224769115448 , -0.13160160183906555
20190807 15:00 , -118.323411 , 33.893916 , AstroPiOTA , 44.154998779296875 , 34.794334411621094 , 1016.617431640625 , 353.98150240010193 , 97.473349607496 , 214.04561932410581 , 0.10691864788532257 , 1.0015194416046143 , -0.13184264302253723
20190807 15:30 , -118.323411 , 33.893916 , AstroPiOTA , 43.97166442871094 , 34.683563232421875 , 1016.353271484375 , 353.9154139165797 , 97.70512524679121 , 215.6937712915866 , 0.10716108977794647 , 1.002004861831665 , -0.13328881561756134
20190807 16:00 , -118.323411 , 33.893916 , AstroPiOTA , 43.47666549682617 , 34.10699462890625 , 1016.179443359375 , 353.9732233570542 , 97.60784969263189 , 215.19997593535135 , 0.10594886541366577 , 1.0027333498001099 , -0.13304777443408966
20190807 16:30 , -118.323411 , 33.893916 , AstroPiOTA , 42.90833282470703 , 34.74320983886719 , 1016.04931640625 , 354.0079838972877 , 97.52927519642006 , 215.24721352365114 , 0.10619131475687027 , 1.002490520477295 , -0.13160160183906555
20190807 17:00 , -118.323411 , 33.893916 , AstroPiOTA , 42.394996643066406 , 35.07267761230469 , 1015.784912109375 , 354.06907609743206 , 97.55184214143779 , 214.79866134047808 , 0.10740353912115097 , 1.0027333498001099 , -0.13328881561756134
20190807 17:30 , -118.323411 , 33.893916 , AstroPiOTA , 41.258331298828125 , 35.37090301513672 , 1015.7177734375 , 354.07940206279665 , 97.62504810896198 , 215.59431007689287 , 0.10328195989131927 , 1.0017621517181396 , -0.13497601449489594
20190807 18:00 , -118.323411 , 33.893916 , AstroPiOTA , 40.06666564941406 , 36.87339401245117 , 1015.61376953125 , 354.1865438252121 , 97.5997627486546 , 214.61535272353328 , 0.10182727873325348 , 1.0012766122817993 , -0.1325657218694687
20190807 18:30 , -118.323411 , 33.893916 , AstroPiOTA , 38.453330993652344 , 38.43836975097656 , 1015.511474609375 , 354.2998562366557 , 97.62612044866168 , 215.75025695602258 , 0.10037261247634888 , 1.000548243522644 , -0.13280674815177917
20190807 19:00 , -118.323411 , 33.893916 , AstroPiOTA , 37.16999816894531 , 39.5006217956543 , 1015.735595703125 , 354.34981864354756 , 97.58620482315212 , 215.38387194856477 , 0.09916038066148758 , 0.9990915060043335 , -0.13449394702911377
20190807 19:30 , -118.323411 , 33.893916 , AstroPiOTA , 37.26166534423828 , 37.10345458984375 , 1016.059326171875 , 354.4562154884566 , 97.58984531397974 , 216.12033026563222 , 0.09916038066148758 , 0.999576985836029 , -0.13497601449489594
20190807 20:00 , -118.323411 , 33.893916 , AstroPiOTA , 37.078330993652344 , 37.05516815185547 , 1016.300048828125 , 354.4183036696948 , 97.61332067415707 , 215.07267486960063 , 0.09916038066148758 , 0.999819815158844 , -0.1340118944644928
20190807 20:30 , -118.323411 , 33.893916 , AstroPiOTA , 36.711666107177734 , 35.23741149902344 , 1016.476318359375 , 354.3909628493341 , 97.71004298299363 , 216.66603505955956 , 0.09867548942565918 , 1.0007909536361694 , -0.13304777443408966
20190807 21:00 , -118.323411 , 33.893916 , AstroPiOTA , 36.30833435058594 , 35.842384338378906 , 1016.806884765625 , 354.50772706762956 , 97.663174224909 , 216.75227302802014 , 0.09770569950342178 , 0.999576985836029 , -0.1325657218694687
20190807 21:30 , -118.323411 , 33.893916 , AstroPiOTA , 35.849998474121094 , 36.086647033691406 , 1017.38623046875 , 354.54737674264834 , 97.66501154579572 , 215.60620826642702 , 0.09722080826759338 , 1.0007909536361694 , -0.13425292074680328
20190807 22:00 , -118.323411 , 33.893916 , AstroPiOTA , 35.556663513183594 , 34.927825927734375 , 1017.337890625 , 354.49434587327187 , 97.57991421892653 , 214.95742225754586 , 0.09697836637496948 , 1.000548243522644 , -0.13449394702911377
20190807 22:30 , -118.323411 , 33.893916 , AstroPiOTA , 35.17166519165039 , 35.007354736328125 , 1017.387939453125 , 354.5532370449562 , 97.71189396425869 , 216.5748930152749 , 0.09649347513914108 , 0.999819815158844 , -0.13425292074680328
20190807 23:00 , -118.323411 , 33.893916 , AstroPiOTA , 34.95166778564453 , 34.81137466430664 , 1017.54052734375 , 354.47746719517227 , 97.63969886473166 , 215.4559304443084 , 0.09649347513914108 , 0.999819815158844 , -0.13497601449489594
20190807 23:30 , -118.323411 , 33.893916 , AstroPiOTA , 34.731666564941406 , 34.63812255859375 , 1017.5498046875 , 354.58542388453304 , 97.64153618561839 , 215.99916270975618 , 0.09552369266748428 , 0.9990915060043335 , -0.13304777443408966
20190808 00:00 , -118.323411 , 33.893916 , AstroPiOTA , 34.71333312988281 , 34.271728515625 , 1017.3623046875 , 354.5873956747691 , 97.69400569882244 , 215.70396193382825 , 0.09600858390331268 , 0.999576985836029 , -0.13425292074680328
20190808 00:30 , -118.323411 , 33.893916 , AstroPiOTA , 34.40166473388672 , 34.35977554321289 , 1017.469482421875 , 354.60514776330876 , 97.60523373017978 , 215.7715944669897 , 0.09552369266748428 , 0.9988486766815186 , -0.13280674815177917
20190808 01:00 , -118.323411 , 33.893916 , AstroPiOTA , 34.236663818359375 , 34.234806060791016 , 1017.08447265625 , 354.5686711380463 , 97.60444142823606 , 215.78115673182774 , 0.09673592448234558 , 1.000548243522644 , -0.1323246955871582
20190808 01:30 , -118.323411 , 33.893916 , AstroPiOTA , 34.18166732788086 , 33.97350311279297 , 1016.979736328125 , 354.55405325256197 , 97.63345607183027 , 215.95170655540295 , 0.09528124332427979 , 0.9981202483177185 , -0.13328881561756134
20190808 02:00 , -118.323411 , 33.893916 , AstroPiOTA , 33.92499923706055 , 34.2291259765625 , 1016.796142578125 , 354.5919377505671 , 97.53557946102399 , 214.89999402700437 , 0.09358412027359009 , 0.9988486766815186 , -0.1337708681821823
20190808 02:30 , -118.323411 , 33.893916 , AstroPiOTA , 33.7599983215332 , 33.848533630371094 , 1016.77001953125 , 354.61112716704025 , 97.61619618379764 , 216.01204444653084 , 0.09649347513914108 , 0.9990915060043335 , -0.13521704077720642
20190808 03:00 , -118.323411 , 33.893916 , AstroPiOTA , 33.650001525878906 , 33.621315002441406 , 1016.94775390625 , 354.6011371616055 , 97.59713312582414 , 215.41096047881302 , 0.09431146085262299 , 0.999819815158844 , -0.1337708681821823
20190808 03:30 , -118.323411 , 33.893916 , AstroPiOTA , 33.650001525878906 , 33.85137176513672 , 1016.845703125 , 354.6391394803738 , 97.67053716883427 , 215.1910966894303 , 0.09552369266748428 , 0.9990915060043335 , -0.1340118944644928
20190808 04:00 , -118.323411 , 33.893916 , AstroPiOTA , 33.57666778564453 , 33.902496337890625 , 1016.8671875 , 354.6398323176877 , 97.51745896915594 , 215.9271588555259 , 0.09406901150941849 , 0.9993342161178589 , -0.13280674815177917
20190808 04:30 , -118.323411 , 33.893916 , AstroPiOTA , 33.46666717529297 , 33.75480651855469 , 1016.77099609375 , 354.59840465905063 , 97.58720203077094 , 215.2382523154601 , 0.09406901150941849 , 0.9986058473587036 , -0.13521704077720642
20190808 05:00 , -118.323411 , 33.893916 , AstroPiOTA , 33.28333282470703 , 33.891136169433594 , 1016.73193359375 , 354.6333632747701 , 97.62352497677706 , 215.51856327899742 , 0.09431146085262299 , 0.9976347088813782 , -0.13184264302253723
20190808 05:30 , -118.323411 , 33.893916 , AstroPiOTA , 33.246665954589844 , 33.936580657958984 , 1016.6435546875 , 354.6706065887669 , 97.69216154774652 , 216.35497458437882 , 0.09576613456010818 , 0.999576985836029 , -0.13618116080760956
20190808 06:00 , -118.323411 , 33.893916 , AstroPiOTA , 33.19166564941406 , 33.198116302490234 , 1016.759033203125 , 354.66883458156406 , 97.65327728080165 , 215.19998959572968 , 0.09382656961679459 , 0.9986058473587036 , -0.13304777443408966
20190808 06:30 , -118.323411 , 33.893916 , AstroPiOTA , 33.209999084472656 , 33.52474594116211 , 1016.902587890625 , 354.65246688699176 , 97.64336667631595 , 215.23062982434635 , 0.09406901150941849 , 0.999576985836029 , -0.13449394702911377
20190808 07:00 , -118.323411 , 33.893916 , AstroPiOTA , 33.099998474121094 , 33.84285354614258 , 1017.043212890625 , 354.6537364484038 , 97.64153618561839 , 214.58616049502064 , 0.09455391019582748 , 0.9986058473587036 , -0.13328881561756134
20190808 07:30 , -118.323411 , 33.893916 , AstroPiOTA , 33.02666473388672 , 33.64403533935547 , 1017.281982421875 , 354.70621834132567 , 97.67238131991017 , 215.37000666454963 , 0.09406901150941849 , 0.9981202483177185 , -0.13304777443408966
20190808 08:00 , -118.323411 , 33.893916 , AstroPiOTA , 33.393333435058594 , 34.4620246887207 , 1017.556396484375 , 354.7183931535212 , 97.55007312244275 , 215.87224413459901 , 0.09455391019582748 , 0.999819815158844 , -0.1325657218694687
20190808 08:30 , -118.323411 , 33.893916 , AstroPiOTA , 33.540000915527344 , 34.518829345703125 , 1017.7734375 , 354.6253950053296 , 97.56003153825263 , 215.66240706291788 , 0.09479635208845139 , 0.999576985836029 , -0.1340118944644928
20190808 09:00 , -118.323411 , 33.893916 , AstroPiOTA , 34.016666412353516 , 34.402381896972656 , 1017.8212890625 , 354.61487992910236 , 97.70757728470325 , 214.97847290056782 , 0.09625103324651718 , 0.9983630776405334 , -0.13328881561756134
20190808 09:30 , -118.323411 , 33.893916 , AstroPiOTA , 34.78666687011719 , 34.91362380981445 , 1017.747314453125 , 354.5474680964285 , 97.56815946336495 , 216.36336205667962 , 0.09625103324651718 , 0.9986058473587036 , -0.13280674815177917
20190808 10:00 , -118.323411 , 33.893916 , AstroPiOTA , 36.8216667175293 , 37.34487533569336 , 1017.683349609375 , 354.3855546201719 , 97.60705739068817 , 214.71661710816787 , 0.09964527189731598 , 0.999819815158844 , -0.13280674815177917
20190808 10:30 , -118.323411 , 33.893916 , AstroPiOTA , 38.746665954589844 , 39.31316375732422 , 1017.994140625 , 354.3403925556061 , 97.59429859731858 , 215.1436815162121 , 0.10061505436897278 , 1.0000625848770142 , -0.13280674815177917
20190808 11:00 , -118.323411 , 33.893916 , AstroPiOTA , 39.49833297729492 , 38.2679557800293 , 1018.14599609375 , 354.1920438350412 , 97.59248176699936 , 214.49613860175987 , 0.10255462676286697 , 1.000548243522644 , -0.1323246955871582
20190808 11:30 , -118.323411 , 33.893916 , AstroPiOTA , 40.268333435058594 , 37.13469696044922 , 1017.950439453125 , 354.14514647553943 , 97.55908897214717 , 213.94036610899593 , 0.10352440178394318 , 1.0010337829589844 , -0.13618116080760956
20190808 12:00 , -118.323411 , 33.893916 , AstroPiOTA , 41.203330993652344 , 35.43907165527344 , 1017.76318359375 , 354.12847227622814 , 97.71065770001893 , 214.20651126019465 , 0.10425174236297607 , 1.0010337829589844 , -0.1337708681821823
20190808 12:30 , -118.323411 , 33.893916 , AstroPiOTA , 42.0283317565918 , 34.564273834228516 , 1017.64453125 , 354.08956196918706 , 97.63933686470565 , 214.8760064026393 , 0.10570641607046127 , 1.0029761791229248 , -0.13280674815177917
20190808 13:00 , -118.323411 , 33.893916 , AstroPiOTA , 42.24833297729492 , 34.28877258300781 , 1017.54150390625 , 353.9699939582373 , 97.5843879928329 , 214.49148041274591 , 0.10570641607046127 , 1.0012766122817993 , -0.13352984189987183
20190808 13:30 , -118.323411 , 33.893916 , AstroPiOTA , 42.339996337890625 , 33.72924041748047 , 1017.182373046875 , 354.0836999593319 , 97.72974124855993 , 214.98466105195587 , 0.10522152483463287 , 1.002004861831665 , -0.13666321337223053
20190808 14:00 , -118.323411 , 33.893916 , AstroPiOTA , 42.65166473388672 , 35.05279541015625 , 1016.957763671875 , 353.9976886677744 , 97.51479519537963 , 213.92391901347455 , 0.10594886541366577 , 1.0010337829589844 , -0.13136059045791626
20190808 14:30 , -118.323411 , 33.893916 , AstroPiOTA , 42.834999084472656 , 34.74037170410156 , 1016.629638671875 , 353.94234535247705 , 97.44700556786727 , 214.8013660953894 , 0.10594886541366577 , 1.0010337829589844 , -0.13111954927444458
20190808 15:00 , -118.323411 , 33.893916 , AstroPiOTA , 42.90833282470703 , 34.268890380859375 , 1016.316650390625 , 354.03062383995217 , 97.61774663673924 , 214.76451039462802 , 0.10546397417783737 , 1.0007909536361694 , -0.1323246955871582
20190808 15:30 , -118.323411 , 33.893916 , AstroPiOTA , 42.81666564941406 , 34.104156494140625 , 1016.02197265625 , 354.05155836975825 , 97.47412824906138 , 215.4947395791724 , 0.10473663359880447 , 1.002004861831665 , -0.13304777443408966
20190808 16:00 , -118.323411 , 33.893916 , AstroPiOTA , 42.30332946777344 , 33.83148956298828 , 1015.825439453125 , 353.9920827900131 , 97.63237007175223 , 214.1774829562221 , 0.10594886541366577 , 1.0015194416046143 , -0.13160160183906555
20190808 16:30 , -118.323411 , 33.893916 , AstroPiOTA , 42.10166549682617 , 33.94510269165039 , 1015.54833984375 , 354.019729688226 , 97.45236726636571 , 214.7212616368035 , 0.10546397417783737 , 1.002004861831665 , -0.1323246955871582
20190808 17:00 , -118.323411 , 33.893916 , AstroPiOTA , 41.73500061035156 , 34.95623016357422 , 1015.5009765625 , 353.97771121822575 , 97.57809738860732 , 214.77404533870936 , 0.10522152483463287 , 1.0000625848770142 , -0.1308785229921341
20190808 17:30 , -118.323411 , 33.893916 , AstroPiOTA , 41.00166320800781 , 35.126644134521484 , 1015.273681640625 , 354.1745956899196 , 97.51480202556881 , 214.91665968857922 , 0.10206973552703857 , 0.999819815158844 , -0.1323246955871582
20190808 18:00 , -118.323411 , 33.893916 , AstroPiOTA , 40.21333312988281 , 35.9389533996582 , 1014.96435546875 , 354.235965366499 , 97.42700677397747 , 214.52276267914456 , 0.10279706865549088 , 1.0000625848770142 , -0.13160160183906555
20190808 18:30 , -118.323411 , 33.893916 , AstroPiOTA , 38.01333236694336 , 37.515289306640625 , 1014.766357421875 , 354.2796273507683 , 97.74086079652872 , 215.63530487229127 , 0.10134238749742508 , 1.000305414199829 , -0.13666321337223053
20190808 19:00 , -118.323411 , 33.893916 , AstroPiOTA , 37.38999938964844 , 37.890201568603516 , 1014.763427734375 , 354.2993256163346 , 97.88428110872064 , 214.15139163359265 , 0.10013016313314438 , 1.000548243522644 , -0.1356990933418274
20190808 19:30 , -118.323411 , 33.893916 , AstroPiOTA , 36.473331451416016 , 37.91576385498047 , 1014.861572265625 , 354.41177955837696 , 97.7328694751998 , 215.4888656164862 , 0.09964527189731598 , 0.999819815158844 , -0.1356990933418274
20190808 20:00 , -118.323411 , 33.893916 , AstroPiOTA , 35.758331298828125 , 39.34440612792969 , 1014.8720703125 , 354.4408193882938 , 97.66133690402226 , 214.74926541240055 , 0.09673592448234558 , 0.9993342161178589 , -0.13449394702911377
20190808 20:30 , -118.323411 , 33.893916 , AstroPiOTA , 35.4283332824707 , 39.145591735839844 , 1015.2138671875 , 354.47598205591464 , 97.62795093935924 , 215.79231726093153 , 0.09819059818983078 , 0.9990915060043335 , -0.13208366930484772
20190808 21:00 , -118.323411 , 33.893916 , AstroPiOTA , 35.4466667175293 , 36.29966354370117 , 1015.55908203125 , 354.5151335540108 , 97.58902569127933 , 213.8917624828621 , 0.09697836637496948 , 0.999576985836029 , -0.13208366930484772
20190808 21:30 , -118.323411 , 33.893916 , AstroPiOTA , 35.26333236694336 , 33.99906539916992 , 1015.948974609375 , 354.45463600721104 , 97.67490165971391 , 215.64023626887203 , 0.09746325761079788 , 1.000305414199829 , -0.13328881561756134
20190808 22:00 , -118.323411 , 33.893916 , AstroPiOTA , 34.18166732788086 , 42.48004150390625 , 1016.0673828125 , 354.62683959033905 , 97.57179312400339 , 214.5184733203458 , 0.09552369266748428 , 0.999819815158844 , -0.13304777443408966
20190808 22:30 , -118.323411 , 33.893916 , AstroPiOTA , 33.70499801635742 , 39.13423156738281 , 1016.307373046875 , 354.58336757070606 , 97.68596656616933 , 215.50068184375033 , 0.09528124332427979 , 0.9990915060043335 , -0.13352984189987183
20190808 23:00 , -118.323411 , 33.893916 , AstroPiOTA , 33.063331604003906 , 37.85327911376953 , 1016.156494140625 , 354.58302392681344 , 97.65879607365102 , 215.0690412089622 , 0.09455391019582748 , 0.9988486766815186 , -0.13473497331142426
20190808 23:30 , -118.323411 , 33.893916 , AstroPiOTA , 32.84333038330078 , 36.89043426513672 , 1016.10205078125 , 354.64941891507465 , 97.60627191893361 , 215.87016775709134 , 0.09431146085262299 , 0.9986058473587036 , -0.13280674815177917
20190809 00:00 , -118.323411 , 33.893916 , AstroPiOTA , 32.45833206176758 , 36.47291946411133 , 1016.06787109375 , 354.72515589457316 , 97.58173787943493 , 215.47863399310953 , 0.09431146085262299 , 0.9993342161178589 , -0.13473497331142426
20190809 00:30 , -118.323411 , 33.893916 , AstroPiOTA , 32.128334045410156 , 35.97871780395508 , 1015.93212890625 , 354.6865431276478 , 97.7717059308205 , 215.83797024534388 , 0.09479635208845139 , 0.9986058473587036 , -0.13618116080760956
20190809 01:00 , -118.323411 , 33.893916 , AstroPiOTA , 31.724998474121094 , 34.89090347290039 , 1015.886962890625 , 354.77169680357764 , 97.53829104612448 , 215.44252961315684 , 0.09358412027359009 , 0.9971491098403931 , -0.13184264302253723
20190809 01:30 , -118.323411 , 33.893916 , AstroPiOTA , 31.523332595825195 , 35.27433776855469 , 1015.462646484375 , 354.7193890804796 , 97.63161875094353 , 214.69538888022748 , 0.09188699722290039 , 0.9981202483177185 , -0.13184264302253723
20190809 02:00 , -118.323411 , 33.893916 , AstroPiOTA , 31.248332977294922 , 34.6636848449707 , 1015.287841796875 , 354.8168447808782 , 97.67053716883427 , 214.82472534235083 , 0.09164455533027649 , 0.9983630776405334 , -0.13425292074680328
20190809 02:30 , -118.323411 , 33.893916 , AstroPiOTA , 31.064998626708984 , 35.39646530151367 , 1015.1513671875 , 354.78875946989797 , 97.71313705868764 , 215.88619138088418 , 0.09261434525251389 , 0.9976347088813782 , -0.13497601449489594
20190809 03:00 , -118.323411 , 33.893916 , AstroPiOTA , 30.661666870117188 , 34.75741195678711 , 1014.845703125 , 354.81751499319057 , 97.51745896915594 , 215.38713677898804 , 0.09140210598707199 , 0.9981202483177185 , -0.13136059045791626
20190809 03:30 , -118.323411 , 33.893916 , AstroPiOTA , 30.42333221435547 , 34.21776580810547 , 1014.8837890625 , 354.8255250975397 , 97.5673056897187 , 215.59537558640338 , 0.09140210598707199 , 0.9976347088813782 , -0.13304777443408966
20190809 04:00 , -118.323411 , 33.893916 , AstroPiOTA , 30.184999465942383 , 34.686405181884766 , 1014.884765625 , 354.9201424274514 , 97.56912252003792 , 215.9938761433386 , 0.09115966409444809 , 0.997391939163208 , -0.13280674815177917
20190809 04:30 , -118.323411 , 33.893916 , AstroPiOTA , 30.05666732788086 , 33.8030891418457 , 1015.14404296875 , 354.8277333830757 , 97.64704814827859 , 215.71713053854802 , 0.09140210598707199 , 0.9978774189949036 , -0.13449394702911377
20190809 05:00 , -118.323411 , 33.893916 , AstroPiOTA , 29.873332977294922 , 33.61279296875 , 1015.38623046875 , 354.86610752026695 , 97.52650213961704 , 214.8977127438216 , 0.09140210598707199 , 0.9978774189949036 , -0.1340118944644928
20190809 05:30 , -118.323411 , 33.893916 , AstroPiOTA , 29.653331756591797 , 33.92522048950195 , 1015.590087890625 , 354.8419064524903 , 97.68781071724523 , 215.8061688845683 , 0.09091722220182419 , 0.997391939163208 , -0.13304777443408966
20190809 06:00 , -118.323411 , 33.893916 , AstroPiOTA , 29.469999313354492 , 33.408294677734375 , 1015.697021484375 , 354.8844115734689 , 97.60261093753849 , 215.12690657161053 , 0.09091722220182419 , 0.9981202483177185 , -0.1340118944644928
20190809 06:30 , -118.323411 , 33.893916 , AstroPiOTA , 29.50666618347168 , 33.50486373901367 , 1016.255126953125 , 354.7959409869234 , 97.4874949292671 , 216.27747925805588 , 0.09140210598707199 , 0.9976347088813782 , -0.13136059045791626
20190809 07:00 , -118.323411 , 33.893916 , AstroPiOTA , 29.653331756591797 , 33.80876922607422 , 1016.465576171875 , 354.88173541997475 , 97.6896616985103 , 215.10455819264627 , 0.09091722220182419 , 0.9978774189949036 , -0.13304777443408966
20190809 07:30 , -118.323411 , 33.893916 , AstroPiOTA , 30.038333892822266 , 34.00758743286133 , 1016.658935546875 , 354.8537111538102 , 97.63528656252782 , 215.5274971664318 , 0.09140210598707199 , 0.997391939163208 , -0.13521704077720642
20190809 08:00 , -118.323411 , 33.893916 , AstroPiOTA , 30.459999084472656 , 34.280250549316406 , 1016.8486328125 , 354.798971029594 , 97.63528656252782 , 215.41829610198164 , 0.09043233096599579 , 0.9988486766815186 , -0.13352984189987183
20190809 08:30 , -118.323411 , 33.893916 , AstroPiOTA , 30.496665954589844 , 34.19504165649414 , 1016.88427734375 , 354.7147022900485 , 97.66615901757629 , 215.68098517746031 , 0.09164455533027649 , 0.9981202483177185 , -0.13473497331142426
20190809 09:00 , -118.323411 , 33.893916 , AstroPiOTA , 31.101665496826172 , 35.22037124633789 , 1017.020263671875 , 354.7513112502261 , 97.69400569882244 , 215.31190907546952 , 0.09285678714513779 , 0.9983630776405334 , -0.13208366930484772
20190809 09:30 , -118.323411 , 33.893916 , AstroPiOTA , 31.724998474121094 , 37.02676773071289 , 1017.267822265625 , 354.6774427543524 , 97.66063339453775 , 215.12372370345733 , 0.09309922903776169 , 0.9986058473587036 , -0.13280674815177917
20190809 10:00 , -118.323411 , 33.893916 , AstroPiOTA , 32.53166580200195 , 36.13777160644531 , 1017.400146484375 , 354.6261587058562 , 97.72486449349255 , 215.36563534348082 , 0.09358412027359009 , 0.9988486766815186 , -0.13497601449489594
20190809 10:30 , -118.323411 , 33.893916 , AstroPiOTA , 33.88833236694336 , 36.06108474731445 , 1017.431396484375 , 354.597631567014 , 97.62978826024597 , 215.65705219460858 , 0.09600858390331268 , 0.9988486766815186 , -0.13208366930484772
20190809 11:00 , -118.323411 , 33.893916 , AstroPiOTA , 35.46500015258789 , 35.10108184814453 , 1017.421630859375 , 354.4861035424909 , 97.58620482315212 , 215.28236167712004 , 0.09697836637496948 , 0.9993342161178589 , -0.1325657218694687
20190809 11:30 , -118.323411 , 33.893916 , AstroPiOTA , 37.334999084472656 , 35.92759323120117 , 1017.3486328125 , 354.31754343839833 , 97.62062897656898 , 215.2598903547507 , 0.10037261247634888 , 1.0007909536361694 , -0.13328881561756134
20190809 12:00 , -118.323411 , 33.893916 , AstroPiOTA , 39.20500183105469 , 35.302738189697266 , 1017.1708984375 , 354.22102262014226 , 97.53919946128408 , 214.88698934682466 , 0.10182727873325348 , 1.002004861831665 , -0.13208366930484772
20190809 12:30 , -118.323411 , 33.893916 , AstroPiOTA , 40.744998931884766 , 34.839778900146484 , 1016.90478515625 , 354.1230094055526 , 97.62139395775603 , 214.72755907121822 , 0.10425174236297607 , 1.0015194416046143 , -0.13328881561756134
20190809 13:00 , -118.323411 , 33.893916 , AstroPiOTA , 42.0283317565918 , 35.08687973022461 , 1016.704833984375 , 354.12791092005574 , 97.60523373017978 , 214.36330508278147 , 0.10425174236297607 , 1.002004861831665 , -0.1340118944644928
20190809 13:30 , -118.323411 , 33.893916 , AstroPiOTA , 42.96333312988281 , 34.959068298339844 , 1016.716796875 , 354.00976614977424 , 97.61332067415707 , 214.58066902292794 , 0.10667620599269867 , 1.0027333498001099 , -0.13352984189987183
20190809 14:00 , -118.323411 , 33.893916 , AstroPiOTA , 43.439998626708984 , 34.58983612060547 , 1016.497314453125 , 353.94689511223794 , 97.56539323675109 , 214.03691766310322 , 0.10643375664949417 , 1.002490520477295 , -0.13280674815177917
20190809 14:30 , -118.323411 , 33.893916 , AstroPiOTA , 44.0816650390625 , 34.683563232421875 , 1015.963623046875 , 353.8551827471576 , 97.57809738860732 , 215.49232169220622 , 0.10885821282863617 , 1.0027333498001099 , -0.13280674815177917
20190809 15:00 , -118.323411 , 33.893916 , AstroPiOTA , 44.595001220703125 , 34.83409881591797 , 1015.75390625 , 353.8172282397135 , 97.58521444572247 , 213.92607735325225 , 0.10764598846435547 , 1.0032190084457397 , -0.13449394702911377
20190809 15:30 , -118.323411 , 33.893916 , AstroPiOTA , 44.94333267211914 , 34.14959716796875 , 1015.62255859375 , 353.81003775806477 , 97.49764459037374 , 215.11384724991748 , 0.10910066217184067 , 1.0015194416046143 , -0.1308785229921341
20190809 16:00 , -118.323411 , 33.893916 , AstroPiOTA , 44.79666519165039 , 34.70060729980469 , 1015.378173828125 , 353.8148884730359 , 97.62946041116581 , 214.42245452099377 , 0.10885821282863617 , 1.0034617185592651 , -0.13328881561756134
20190809 16:30 , -118.323411 , 33.893916 , AstroPiOTA , 44.61333465576172 , 32.88568878173828 , 1015.51953125 , 353.8172282397135 , 97.58521444572247 , 214.51483965970735 , 0.10813087970018387 , 1.0027333498001099 , -0.1323246955871582
20190809 17:00 , -118.323411 , 33.893916 , AstroPiOTA , 44.31999969482422 , 34.0899543762207 , 1015.3857421875 , 353.8956955873327 , 97.68543381141406 , 214.27732666150933 , 0.10934310406446457 , 1.002004861831665 , -0.13352984189987183
20190809 17:30 , -118.323411 , 33.893916 , AstroPiOTA , 42.394996643066406 , 35.03291320800781 , 1015.4970703125 , 354.0128879731118 , 97.73344321109009 , 215.46868923767798 , 0.10837332904338837 , 1.0000625848770142 , -0.1356990933418274
20190809 18:00 , -118.323411 , 33.893916 , AstroPiOTA , 40.78166580200195 , 35.39930725097656 , 1015.4287109375 , 354.0174309026835 , 97.70388215236227 , 214.53319920819635 , 0.10449419170618057 , 1.000548243522644 , -0.13521704077720642
20190809 18:30 , -118.323411 , 33.893916 , AstroPiOTA , 39.681663513183594 , 36.328067779541016 , 1015.255615234375 , 354.0674859440159 , 97.74698747621422 , 214.86140345819382 , 0.10425174236297607 , 0.999576985836029 , -0.1354580670595169
20190809 19:00 , -118.323411 , 33.893916 , AstroPiOTA , 38.856666564941406 , 37.22274398803711 , 1015.414306640625 , 354.13784073444845 , 97.74829887253486 , 214.53377294408665 , 0.10376685857772827 , 1.000305414199829 , -0.13618116080760956
20190809 19:30 , -118.323411 , 33.893916 , AstroPiOTA , 38.81999969482422 , 36.524044036865234 , 1015.72021484375 , 354.1768048292293 , 97.70942826596831 , 214.95045546459244 , 0.10376685857772827 , 1.0010337829589844 , -0.13666321337223053
20190809 20:00 , -118.323411 , 33.893916 , AstroPiOTA , 37.92166519165039 , 36.194576263427734 , 1015.45654296875 , 354.2433308717452 , 97.8726288059966 , 215.24217284404367 , 0.10109994560480118 , 1.000548243522644 , -0.13473497331142426
20190809 20:30 , -118.323411 , 33.893916 , AstroPiOTA , 36.986663818359375 , 35.299896240234375 , 1015.608642578125 , 354.34928887700005 , 97.75256091057695 , 215.1968203879548 , 0.10134238749742508 , 1.0010337829589844 , -0.13690423965454102
20190809 21:00 , -118.323411 , 33.893916 , AstroPiOTA , 36.27166748046875 , 35.1749267578125 , 1015.820556640625 , 354.3534574268279 , 97.65511460168838 , 214.91052617870454 , 0.09964527189731598 , 0.999576985836029 , -0.13473497331142426
20190809 21:30 , -118.323411 , 33.893916 , AstroPiOTA , 35.37333297729492 , 35.061317443847656 , 1015.970947265625 , 354.43486389022434 , 97.82177121743669 , 215.54618456400095 , 0.09916038066148758 , 0.9986058473587036 , -0.13473497331142426
20190809 22:00 , -118.323411 , 33.893916 , AstroPiOTA , 34.95166778564453 , 34.550071716308594 , 1015.7744140625 , 354.4203902924863 , 97.65695192257512 , 215.01752792224195 , 0.09891793131828308 , 0.9978774189949036 , -0.1354580670595169
20190809 22:30 , -118.323411 , 33.893916 , AstroPiOTA , 34.236663818359375 , 34.45066452026367 , 1015.888916015625 , 354.48502992213076 , 97.78665038472448 , 215.71385204774643 , 0.09819059818983078 , 0.9983630776405334 , -0.13497601449489594
20190809 23:00 , -118.323411 , 33.893916 , AstroPiOTA , 34.03499984741211 , 34.24048614501953 , 1015.882080078125 , 354.57348556763753 , 97.56997629368416 , 215.1249804582646 , 0.09625103324651718 , 0.9976347088813782 , -0.1337708681821823
20190809 23:30 , -118.323411 , 33.893916 , AstroPiOTA , 33.301666259765625 , 33.692317962646484 , 1015.929443359375 , 354.4928761019398 , 97.77543521410732 , 215.7549697865499 , 0.09794814884662628 , 0.9983630776405334 , -0.13618116080760956
20190810 00:00 , -118.323411 , 33.893916 , AstroPiOTA , 32.84333038330078 , 33.72356033325195 , 1015.888916015625 , 354.53953184349973 , 97.77306513846533 , 215.26243118512193 , 0.09600858390331268 , 0.9990915060043335 , -0.1340118944644928
20190810 00:30 , -118.323411 , 33.893916 , AstroPiOTA , 32.62333297729492 , 33.41397476196289 , 1015.861083984375 , 354.5300067178153 , 97.68411558490425 , 215.38063443889817 , 0.09503880143165588 , 0.9990915060043335 , -0.1323246955871582
20190810 01:00 , -118.323411 , 33.893916 , AstroPiOTA , 32.11000061035156 , 33.67811965942383 , 1015.855712890625 , 354.613259039835 , 97.68227143382835 , 215.11570506137173 , 0.09503880143165588 , 0.9986058473587036 , -0.1340118944644928
20190810 01:30 , -118.323411 , 33.893916 , AstroPiOTA , 31.7066650390625 , 33.087345123291016 , 1015.8916015625 , 354.6540006913473 , 97.76559291151334 , 215.2744659784395 , 0.09503880143165588 , 0.9976347088813782 , -0.13497601449489594
20190810 02:00 , -118.323411 , 33.893916 , AstroPiOTA , 31.395000457763672 , 32.845924377441406 , 1015.87109375 , 354.67230687898336 , 97.76507381713641 , 214.89629206447424 , 0.09479635208845139 , 0.9971491098403931 , -0.13352984189987183
20190810 02:30 , -118.323411 , 33.893916 , AstroPiOTA , 31.248332977294922 , 32.550540924072266 , 1015.666015625 , 354.6305577745685 , 97.71066453020809 , 215.93905704506008 , 0.09309922903776169 , 0.9986058473587036 , -0.1340118944644928
20190810 03:00 , -118.323411 , 33.893916 , AstroPiOTA , 30.899999618530273 , 32.70675277709961 , 1015.59423828125 , 354.60814023993885 , 97.6896616985103 , 215.34338258716494 , 0.09406901150941849 , 0.9986058473587036 , -0.13497601449489594
20190810 03:30 , -118.323411 , 33.893916 , AstroPiOTA , 30.56999969482422 , 32.43976974487305 , 1015.553466796875 , 354.71788643886214 , 97.71684585140696 , 216.51742380359843 , 0.09334167838096619 , 0.9983630776405334 , -0.13666321337223053
20190810 04:00 , -118.323411 , 33.893916 , AstroPiOTA , 30.38666534423828 , 32.431251525878906 , 1015.490966796875 , 354.72838828159786 , 97.66615901757629 , 215.40884312017033 , 0.09261434525251389 , 0.9976347088813782 , -0.1340118944644928
20190810 04:30 , -118.323411 , 33.893916 , AstroPiOTA , 30.16666603088379 , 32.30344009399414 , 1015.70263671875 , 354.68767010886086 , 97.69335683085129 , 215.72850963370527 , 0.09188699722290039 , 0.9971491098403931 , -0.13594011962413788
20190810 05:00 , -118.323411 , 33.893916 , AstroPiOTA , 30.038333892822266 , 32.06769943237305 , 1015.88525390625 , 354.6750820702205 , 97.67791377313787 , 214.87151213816543 , 0.09212945401668549 , 0.9976347088813782 , -0.1340118944644928
20190810 05:30 , -118.323411 , 33.893916 , AstroPiOTA , 29.67166519165039 , 32.24379348754883 , 1016.11865234375 , 354.7137819220578 , 97.69520781211635 , 215.64432072199568 , 0.09212945401668549 , 0.9964208006858826 , -0.13425292074680328
20190810 06:00 , -118.323411 , 33.893916 , AstroPiOTA , 29.488332748413086 , 31.800716400146484 , 1016.36328125 , 354.81018876153206 , 97.6389612043013 , 215.19120597245706 , 0.09237189590930939 , 0.9971491098403931 , -0.1337708681821823
20190810 06:30 , -118.323411 , 33.893916 , AstroPiOTA , 29.34166717529297 , 32.3261604309082 , 1016.591552734375 , 354.7198910993836 , 97.67238131991017 , 216.09698467904911 , 0.09091722220182419 , 0.9969062805175781 , -0.1337708681821823
